[{"qualNum":1,"name":"Who Let The Bots Out","location":"Canton High School","region":"Canton, MA","timeRange":"7:30 - 17:30","date":"12-15-2018"},{"qualNum":2,"name":"Battle of Lexington 6.0","location":"Lexington High School","region":"Lexington, MA","timeRange":"11:00 - 21:00","date":"1-5-2019"},{"qualNum":3,"name":"Battle of Lexington 6.1","location":"Lexington High School","region":"Lexington, MA","timeRange":"7:30 - 17:30","date":"1-6-2019"},{"qualNum":4,"name":"RoboStorm 4.3","location":"Andover High School","region":"Andover, MA","timeRange":"7:00 - 17:00","date":"2-3-2019"},{"qualNum":5,"name":"RoboStorm 4.4","location":"Andover High School","region":"Andover, MA","timeRange":"7:00 - 17:00","date":"2-2-2019"},{"qualNum":6,"name":"Redhawk Rumble","location":"Natick High School","region":"Natick, MA","timeRange":"7:30 - 17:30","date":"1-27-2019"},{"qualNum":7,"name":"Rocket Rumble","location":"Needham High School","region":"Needham, MA","timeRange":"7:30 - 17:30","date":"2-2-2019"},{"qualNum":8,"name":"Wild West Qualifier","location":"Hopkins Academy","region":"Hadley, MA","timeRange":"7:30 - 17:30","date":"2-9-2019"}]